"name","lon","lat"
"Changi General Hospital (CGH)",103.9495701,1.3401915
"Gleneagles Hospital",103.8202408,1.3072973
"Khoo Teck Puat Hospital",103.838217,1.4246142
"Mount Alvernia Hospital",103.8374478,1.3417917
"National University Hospital (NUH)",103.7830545,1.2946546
"Ng Teng Fong General Hospital & Jurong Community Hospital",103.7453915,1.3337448
"Parkway East Hospital (former East Shore Hospital)",103.9089093,1.3150433
"Raffles Hospital",103.857096,1.301059
"Sengkang General Hospital",103.893403,1.395493
"Singapore General Hospital (SGH)",103.835984,1.279677
"Tan Tock Seng Hospital (TTSH)",103.8458333,1.3213889
"Alexandra Hospital",103.8012749,1.2865882
"Ang Mo Kio-Thye Hua Kwan Hospital Ltd",103.8402041,1.383513
"Bright Vision Hospital",103.8780281,1.3720533
"Ng Teng Fong General Hospital & Jurong Community Hospital",103.7453915,1.3337448
"Kwong Wai Shiu Hospital And Nursing Home",103.8593269,1.317285
"Ren Ci Long Term Care (Hougang)",103.8847294,1.3821973
"Ren Ci Community Hospital",103.845971,1.322866
"Ren Ci Nursing Home",103.8529069,1.3606198
"Sengkang General & Community Hospitals",103.893403,1.395493
"St Andrew's Community Hospital (SACH)",103.9489198,1.3417436
"St Luke's Hospital",103.7420877,1.3493911
"Yishun Community Hospital",103.8373867,1.423727
"Adam Road Medical Centre",103.8109098,1.3233096
"Institute Of Mental Health (IMH) (former Woodbridge Hospital)",103.8847242,1.3818906
"Johns Hopkins Singapore International Medical Centre (IMC)",103.8459019,1.3212333
"KK Women's And Children's Hospital (KKH)",103.8470432,1.3105743
"Mount Elizabeth Hospital",103.8354896,1.3052551
"National Cancer Centre Singapore (NCCS)",103.8367369,1.2794134
"National Dental Centre of Singapore (NDC)",103.8383148,1.2795809
"National Heart Centre Singapore (NHCS)",103.8361084,1.2785753
"National Neuroscience Institute (NNI)",103.8455558,1.3220806
"National Skin Centre (NSC)",103.8490639,1.3197673
"Singapore National Eye Centre (SNEC)",103.8359566,1.2810896
"Thomson Medical Centre (TMC)",103.8415012,1.3253292
"CHENG CLINIC",103.855967138976,1.36747901395741
"CHEONG FAMILY CLINIC PTE LTD",103.850825476113,1.31559567557441
"CHEONG MEDICAL CLINIC",103.77332960556,1.34054866770426
"CHERN MEDICAL CLINIC",103.945588355489,1.34550450587014
"CHIN LEONG CLINIC",103.7601572777,1.30747684403086
"CHESTMED pte ltd",103.83543933754,1.30516521414744
"CHIA & LEE MEDICAL & DENTAL CLINIC",103.93803402297,1.34608442387087
"CHIA CLINIC AND SURGERY",103.859968796046,1.31270180835768
"CHIEW CLINIC",103.88499280169,1.36197602911345
"CHIN CHOO CLINIC",103.886010316195,1.32915899651205
"CHINATOWN WELLNESS CLINIC",103.846101472114,1.28439238197795
"CHIRON MEDICAL CLINIC",103.861107276896,1.32258735163112
"CHNG CLINIC AND SURGERY",103.849264521174,1.33358025833851
"CHONG & LIM FAMILY CLINIC",103.768538441068,1.37867070866309
"CHONG MEDICAL CLINIC",103.91989305506,1.33716507465033
"CHOONG'S CLINIC",103.953613062624,1.36189869571333
"CHOONG'S CLINIC",103.88441304265,1.3075861395776
"CHUA CLINIC",103.884236382226,1.37084076367772
"CHUA CLINIC & SURGERY",103.83322239147,1.42460205341205
"CHUA CLINIC & SURGERY",103.835446503405,1.41562517359593
"CHUA MEDICO CLINIC LLP",103.85545542764,1.37234358213412
"CHUAH CLINIC & SURGERY PTE LTD",103.886159306963,1.32052595944466
"CHUNGKIAW CLINIC PTE LTD",103.773649129579,1.34054847931538
"CITILIFE FAMILY CLINIC",103.738514477814,1.33993327230313
"CITIZEN FAMILY CLINIC AND SURGERY",103.828762985206,1.43061830395979
"DA Clinic @ Bishan",103.84907733333,1.34841689766538
"1 Medical Teck Ghee",103.854644986918,1.36271541943285
"115 EASTPOINT CLINIC & SURGERY",103.936865404289,1.33143367986449
"18 CLINIC",103.861087462865,1.31942539044681
"A & A Clinic",103.79045407864,1.43106395467045
"1Aesthetics, Medical & Surgery",103.84679624319,1.28895619965092
"338 FAMILY CLINIC",103.848986957423,1.3638957019431
"57 Medical Clinic (Geylang Bahru)",103.869147756879,1.3235378064709
"81 FAMILY CLINIC",103.906754510622,1.30173721640039
"888 PLAZA FAMILY CLINIC",103.79531438351,1.43712301469225
"A LIFE CLINIC PTE LTD",103.844160709873,1.3207051098625
"A MEDICAL CLINIC",103.840001188467,1.27742654256439
"A+FFORDABLE CLINIC (AMK AVE 10)",103.856047008296,1.36785888235033
"A+FFORDABLE CLINIC (HOUGANG)",103.885679159796,1.37297840263115
"A1 Medical Clinic",103.930036524412,1.32856421162809
"ABLE MEDICAL",103.953586491461,1.35226231434834
"ACMS MEDICAL CLINIC",103.837359153263,1.30139878843175
"ACUMED MEDICAL GROUP",103.852547365584,1.28418785545188
"ACUMED MEDICAL GROUP",103.706685012636,1.33945271688955
"ACUMED MEDICAL GROUP",103.742787643586,1.32113896653504
"ACUMED MEDICAL GROUP",103.782059433299,1.43794381737826
"ACUMED MEDICAL GROUP",103.722451247982,1.33237347600046
"ACUMED MEDICAL GROUP",103.652226413178,1.31715448633568
"ACUMED MEDICAL GROUP",103.66095280564,1.32148166492796
"ADIDAH FAMILY CLINIC & SURGERY",103.934649103244,1.34841976695403
"ADVANCE CLINIC & SURGERY PTE LTD",103.901953041118,1.33068802483318
"AE Medical Clinic",103.877933381804,1.39807105477126
"AIDAN MEDICAL CLINIC",103.925307290309,1.33131386611754
"ALEXANDRA FAMILY CLINIC & SURGERY",103.810958956801,1.29270339832463
"Apollo Medical Centre",103.851478219833,1.30758123998287
"ALLIANCE CLINIC AND PARTNERS PTE LTD",103.907742997146,1.33269651937702
"AMDA International Peace Clinic",103.819135632329,1.30847204130269
"AMITY MEDICAL CLINIC & DENTAL SURGERY",103.75069463099,1.35925940880518
"AMK FAMILY CLINIC PTE LTD",103.847159445411,1.36929729659109
"AMPM FAMILY CLINIC & SURGERY PTE. LTD.",103.845703844549,1.33864901778038
"ANG MO KIO MEDICAL CENTRE",103.839395071325,1.37530562129984
"ANSARI FAMILY CLINIC & SURGERY",103.883338697356,1.31592240672591
"APEX CLINIC & SURGERY",103.835446503405,1.41562517359593
"APEX CLINIC & SURGERY",103.774636554647,1.42992991950792
"APEX MEDICAL CENTRE (JURONG) PTE LTD",103.691459639169,1.34138531152671
"AR-Raudhah Medical Clinic and Surgery Pte Ltd",103.751213742333,1.35866916669751
"ARCADIA CLINIC",103.778972458718,1.32044171174532
"ASIAMEDIC WELLNESS ASSESSMENT CENTRE",103.831507365278,1.30580981572661
"ASPEN CLINIC",103.844748631654,1.35891907140489
"ASSOCIATE DISPENSARIES",103.849538318462,1.33889442806175
"ASSURANCE MEDICARE CLINIC AND SURGERY",103.896729088429,1.30288819409101
"ATLAS PACIFIC MEDICAL",103.827620903348,1.29446098576164
"ATRIO FAMILY CLINIC (AMK) PTE. LTD.",103.854594160953,1.37380851529933
"Acacia Medical Clinic",103.803023755955,1.28220135432784
"AcuMed Medical Group",103.70592708661,1.33845148863534
"AcuMed Medical Group",103.932493034946,1.32587565153874
"AcuMed Medical Group",103.892787161386,1.38977026270373
"Acumed Medical Group",103.678409741881,1.32561767794228
"Acumed Medical Group",103.626524577792,1.28909462597839
"Affinity Medical Clinic",103.870851534198,1.35403939788243
"Allergy, Arthritis & Rheumatism Clinic",103.853929522028,1.31247324146379
"Allhealth Family Clinic",103.931623628634,1.35524290247104
"Ally Health",103.798227586733,1.29996199426431
"Ang Mo Kio Family Medicine Clinic",103.845949440183,1.37193728999032
"Anteh Dispensary Pte Ltd",103.882455638548,1.31277604579897
"Atrio Family Clinic",103.836723874387,1.43576080433402
"B S CHEW CLINIC",103.738145286322,1.34302644245795
"B T GOH FAMILY CLINIC & SURGERY",103.858181908966,1.33093933661869
"BALKIS FAMILY CLINIC",103.914941831149,1.33295923548327
"EVERWELL CLINIC & SURGERY",103.850825476113,1.31559567557441
"BEDOK  CENTRAL CLINIC",103.932493034946,1.32587565153874
"BEDOK CLINIC & SURGERY(Family Medical Centre)",103.935563486314,1.32014882956642
"BEDOK LIFE CLINIC",103.937343348132,1.32919868633173
"BEDOK MEDICAL CENTRE",103.934734222327,1.3206250489608
"BISHAN GRACE CLINIC",103.855213610026,1.34452706925104
"BL MEDICAL ASSOCIATES",103.784855036241,1.29076149231466
"BOK FAMILY CLINIC  PTE LTD",103.908688936297,1.33141324887407
"BOON KENG CLINIC & SURGERY",103.870914031071,1.31423937057055
"BOON LAY CENTRAL CLINIC",103.712429315355,1.3463481965558
"BOON LAY CLINIC & SURGERY",103.712429315355,1.3463481965558
"BOON LAY CORPORATION CLINIC",103.731255559658,1.34404941870857
"BOSTON MEDICAL",103.886058091098,1.32012887334325
"BUKIT BATOK MEDICAL CLINIC",103.749382188619,1.3462486617594
"BUKIT TIMAH CLINIC",103.809058595403,1.3245755173538
"BUKIT TIMAH NAM SANG  CLINIC",103.773237589356,1.34055525010784
"Banyan Clinic Pte Ltd.",103.798140993881,1.44562290748789
"Beo Crescent Clinic & Surgery",103.827513018591,1.28905789113721
"Bethesda Medical Centre",103.859014406987,1.29593189474123
"Bless Medical Centre Pte Ltd",103.712429315355,1.3463481965558
"Braddell Family Clinic",103.844627301844,1.33864876707252
"C & K FAMILY CLINIC PTE LTD",103.92930519829,1.31316934216382
"C H TAN MEDICAL CLINIC & DENTAL SURGERY",103.741742087355,1.34634407478636
"C K TAN FAMILY CLINIC & SURGERY PTE LTD",103.845737117486,1.33833133425818
"C Y KOK CLINIC & SURGERY",103.839395071325,1.37530562129984
"C.M.C. WONG BINJAI CLINIC",103.786854059334,1.33622384171884
"C3 Family Clinic @Aljunied Crescent",103.886195689055,1.32170328990751
"CARE MEDICAL PTE LTD",103.886367847372,1.37331270083797
"CARITAS CLINIC",103.901228610039,1.32955256814021
"CASHEW MEDICAL & SURGERY",103.77076830515,1.38358044593591
"CASSIA CLINIC & SURGERY",103.884471780069,1.30964078460585
"CCK FAMILY CLINIC",103.743145847094,1.38449608058333
"CECILIA FAMILY CLINIC & SURGERY",103.952639447158,1.36189785903603
"CENTRAL 24-HR CLINIC (BEDOK)",103.932948087726,1.32496457671995
"CENTRAL 24-HR CLINIC (CLEMENTI)",103.765476305113,1.31353886094619
"CENTRAL 24-HR CLINIC (HOUGANG)",103.885679159796,1.37297840263115
"CENTRAL 24-HR CLINIC (MARSILING)",103.774011078502,1.43079961597954
"CENTRAL 24-HR CLINIC (PASIR RIS)",103.957726864829,1.37030619330386
"CENTRAL 24-HR CLINIC (TAMPINES)",103.953586491461,1.35226231434834
"CENTRAL 24-HR CLINIC (WOODLANDS)",103.798140993881,1.44562290748789
"CENTRAL 24-HR CLINIC (YISHUN)",103.827943218947,1.4298784547931
"CENTRAL MEDICAL GROUP PTE LTD",103.808963346658,1.28662190371744
"CHAI CHEE CLINIC & SURGERY",103.924149637094,1.32328959901597
"CHAN FAMILY CLINIC",103.901515916912,1.30409731167599
"CHANG CLINIC",103.77860007818,1.3387593077272
"CHANG CLINIC & SURGERY",103.838679504053,1.27692435181046
"CHARIS CLINIC & SURGERY",103.9460006915,1.3496215147162
"GOH CLINIC + SURGERY",103.757539380941,1.34694365739119
"GOODDOCTORS MEDICAL CLINIC",103.841660985807,1.43312284024159
"GRACE CLINIC & SURGERY",103.838816721495,1.38046758627437
"GREAT HEALTH MEDICAL CLINIC",103.855247666969,1.36191347168144
"GREEN CROSS MEDICAL CENTRE",103.932714940567,1.34903743492173
"GREENLIFE CLINIC & SURGERY",103.820139486431,1.44902668521597
"GREENLIFE CLINIC & SURGERY",103.747084778715,1.3980473611046
"GREENLINK MEDICAL CLINIC",103.831578419639,1.41649875780089
"GSH CLINIC & SURGERY PTE. LTD.",103.876883622707,1.35466521856974
"Gerrard Teoh Hematology & Medical Clinic",103.844160709873,1.3207051098625
"GreenForest Family Clinic",103.929363834353,1.35126411242426
"H S LEE CLINIC & SURGERY",103.831120689791,1.43706628201915
"HARMONY FAMILY CLINIC",103.748749195678,1.3797566438487
"HAVELOCK FAMILY CLINIC",103.828824191963,1.28874603715013
"HEAL MEDICAL CENTRE",103.85319966194,1.32213342793662
"HEALTH PARTNERS FAMILY CLINIC",103.749244800522,1.35001920966652
"HEALTH PARTNERS MEDICAL CLINIC",103.848958253576,1.28113563498683
"HEALTH PARTNERS MEDICAL CLINIC (SIGLAP)",103.926329604059,1.31312677933466
"HEALTH PARTNERSHIP MEDICAL CENTRE",103.825310761058,1.27392939913176
"HEALTHBRIDGE FAMILY CLINIC",103.909541012266,1.40386056418231
"HEALTHCARE FAMILY CLINIC & SURGERY",103.833604034065,1.36287032246814
"HEALTHCARE MEDICAL @ Kovan",103.886636110951,1.35869679921108
"HEALTHCARE MEDICAL @ RAILMALL",103.767604074877,1.35960982893863
"HEALTHIFY MEDICAL FAMILY CLINIC",103.85319966194,1.32213342793662
"HEALTHLINE FAMILY CLINIC & SURGERY PTE. LTD.",103.924149637094,1.32328959901597
"HEALTHLINK (AMK) MEDICAL CENTRE",103.838201939907,1.37096635229769
"HEALTHLINK FAMILY CLINIC & SURGERY",103.788545950367,1.31010302628844
"EVERHEALTH MEDICAL CENTRE",103.891282466742,1.37781568096983
"EVERTON CLINIC",103.838679504053,1.27692435181046
"EXCEL FAMILY CLINIC",103.88783201701,1.37924529078289
"EXCELSIOR CLINIC & SURGERY",103.757539380941,1.34694365739119
"Edgedale Medical Clinic (Cambridge)",103.848243054151,1.3159930169211
"Elissa Medical Clinic",103.879472338027,1.37571530662888
"Elyon Family Clinic And Surgery",103.808335234688,1.27363296004244
"Etern Medical Clinic",103.902072622227,1.40454653696814
"Etern Medical Clinic (Fernvale Palm)",103.877202311346,1.39475047621055
"Etern Medical Clinic (Sengkang)",103.876125506847,1.39147015412078
"Eterna Medical Clinic",103.840408652686,1.38010475022238
"F K LIM FAMILY CLINIC",103.949259231371,1.3507727878183
"FAITH CLINIC (SIMEI)",103.956561347989,1.34668351018352
"FAITH CLINIC (TOA PAYOH)",103.853768900177,1.34042178823098
"FAITH CLINIC (YISHUN)",103.841268831273,1.41795288509924
"FAITH FAMILY CLINIC",103.91548479998,1.30651257339373
"CMY Medical",103.926207634385,1.32544200316618
"FAITH HEALTHCARE (RIVERVALE)",103.904483668484,1.39250411008759
"FAITH HEALTHCARE (TAMPINES)",103.959900188924,1.3545494425702
"FAITH MEDICAL CLINIC & SURGERY",103.957884241959,1.36075820419992
"FAJAR FAMILY CLINIC & SURGERY",103.77076830515,1.38358044593591
"FAMILY CARE CLINIC & SURGERY",103.836760311656,1.37858210019768
"FAMILY CARE CLINIC PTE LTD",103.746610701854,1.36326877933412
"FAMILY CARE MEDICAL CENTRE PTE LTD",103.884293734337,1.37491294218702
"FAMILY HEALTH CLINIC",103.792897574707,1.3074341112717
"FAMILY HEALTH CLINIC & SURGERY",103.842935479988,1.32589620222
"FAMILY HEALTH MEDICAL CENTRE",103.839861074062,1.36682590272899
"CLIFFORD DISPENSARY PTE LTD",103.985459981704,1.34821194016273
"CLIFFORD DISPENSARY PTE LTD",103.831507365278,1.30580981572661
"CLINIC @ THE SAIL",103.85265856205,1.28076943496046
"CLINIC FARIDAH",103.940695612374,1.32405898637368
"CLINICAL ASSOCIATES MEDICAL CENTRE",103.752483840899,1.38004753002611
"COMFORT CLINIC & SURGERY",103.873633486993,1.35732435179355
"COMPASSVALE 297A MEDICAL CLINIC",103.900697317522,1.39483596046538
"COUNTRYSIDE CLINIC AND SURGERY",103.827452004281,1.43147861410692
"CRAWFURD MEDICAL",103.859014406987,1.29593189474123
"CRESCENT CLINIC &  SURGERY",103.902727807655,1.32129030506821
"CREST FAMILY CLINIC PTE. LTD.",103.79871304314,1.44466656455938
"CROSS STREET MEDICAL CLINIC",103.846101472114,1.28439238197795
"Calrose Medical Family Clinic",103.891879097963,1.40205917712603
"Camry Medical Centre",103.848993317286,1.33889072192265
"Canberra Care Medical Clinic",103.831508132382,1.4456745291262
"Care Family Clinic",103.850857725358,1.30568031682027
"Caring Family Clinic",103.719222201398,1.34981225393483
"Central 24-HR Clinic ( Pioneer North )",103.690721731343,1.34148123560942
"Central 24HR Clinic (Jurong West)",103.725180466271,1.34994543580238
"Changi Clinic",103.901431784397,1.31720886041624
"Chin Medical Clinic",103.766228468168,1.38540569301034
"Chua & Partners Family Clinic",103.826785447839,1.28569742860668
"Chua Medical Centre Pte Ltd",103.953541142784,1.34359376286677
"Chua Medical Clinic And Surgery Pte. Ltd.",103.751706683251,1.34900647929724
"Chung & Ee Medical Clinic",103.819769431776,1.27773153221637
"Circuit Medical Clinic",103.886930797614,1.32902607935956
"CityGP Family Clinic",103.937787149156,1.32861719819575
"CityHealth Clinic & Surgery",103.859351023904,1.29884087991136
"Clinic@Costa",103.940116990924,1.31218816522514
"Clover Medical Clinic Pte Ltd",103.746637430571,1.39706712804272
"Cornerstone Medical",103.784598100789,1.30849288053919
"Cornerstone Medical Bidadari",103.871259715426,1.33413900018418
"Corporation Clinic (Choa Chu Kang)",103.744393648371,1.37736607411235
"Crossroads Family Clinic",103.937510784032,1.36088277451527
"DA CLINIC @ POTONG PASIR",103.868214025397,1.33149708060439
"DA clinic @ Anchorvale",103.886617624917,1.39332786576656
"DA clinic @ Bukit Batok",103.743948447105,1.35303824914482
"DA clinic @ Sembawang",103.824845207379,1.44182470635163
"DA clinic @ Taman Jurong",103.581751807954,1.01626425482099
"DAILY MEDICAL CENTRE",103.879517231861,1.35144832553092
"DAVITA MEDICAL & DIALYSIS CENTRE (JURONG EAST)",103.744574632224,1.33015172116219
"DAYSPRING MEDICAL CLINIC (TAMPINES)",103.943812302435,1.35236829560034
"DOCTORS FOR LIFE MEDICAL",103.847429981968,1.28428813152396
"DOCTORS INC MEDICAL GROUP",103.849264521174,1.33358025833851
"DOCTORS KOO, LOH & ASSOCIATES (PTE) LTD",103.720708632127,1.32707670705423
"DOVER MEDICAL CENTRE",103.787581248398,1.29915016462316
"DR CHUA'S FAMILY CLINIC PTE. LTD.",103.697174842354,1.34169239237791
"DR JOYCE & PARTNERS FAMILY CLINIC",103.892811293348,1.40195621611022
"DR LIM LEAN HUAT & ASSOCIATES PTE LTD",103.843252763122,1.32047597480701
"DR SOH FAMILY CLINIC",103.692916978325,1.34170245992124
"DRS KOO, KOH & ASSOCIATES P.L.",103.817072709118,1.2836613928251
"DRS LIM & CHAN CLINIC",103.875680063619,1.35060795579762
"DRS LIM & CHAN CLINIC",103.890680792157,1.35370297114613
"DRS OH, LIM, WONG & PARTNERS",103.690721731343,1.34148123560942
"Dr.W Family Clinic",103.805373812286,1.31641190070436
"DRS SINGH & PARTNERS, RAFFLES CITY MEDICAL CENTRE",103.8527683243,1.29376028146733
"DRS TANG & PARTNERS PTE. LTD.",103.722451247982,1.33237347600046
"DTAP @ Robertson",103.841475100183,1.29189934215369
"DTAP @ SIGLAP",103.92444984956,1.31205928217535
"DTAP @ Somerset",103.837359153263,1.30139878843175
"DUXTON MEDICAL CLINIC CANBERRA",103.813936814037,1.44631506786133
"DaVita Medical & Dialysis Centre (Farrer Park)",103.853929522028,1.31247324146379
"DaVita Medical & Dialysis Centre (Novena)",103.843252763122,1.32047597480701
"Dawson Medical Clinic",103.809758591462,1.29531966312279
"Doctors Clinic & Surgery",103.774102413755,1.43036145793777
"Dover Clinic and Surgery Pte Ltd",103.781779696786,1.30446092684555
"Dr Chen and Partners Medical Clinic",103.835564729732,1.35319495294524
"Dr Chua & Lee Family Clinic",103.848152968836,1.35717822107249
"Dr Gary's Family Clinic",103.826764453903,1.29113483647707
"Dr Jeremy Chan Medical Clinic",103.845703844549,1.33864901778038
"Dr Joyce & Partners Family Clinic (Toa Payoh Branch)",103.848854818027,1.33390034089973
"Dr Nah & Lee Family Clinic",103.801057143564,1.4483415501858
"Dr Stanley Peck Family Clinic",103.751825709259,1.34963274148521
"Dr Steven Ang Aesthetic & Family Clinic",103.815711568942,1.28846476848129
"Dr W.K. Koo & Associates P.L.",103.706685012636,1.33945271688955
"Drs Chan & Tang Family Clinic",103.845737117486,1.33833133425818
"Drs Koo, Fok & Associates Pte Ltd",103.678410551478,1.32561764091444
"Drs Koo, Fok & Associates( Pioneer )",103.697321608176,1.3375870106289
"Duxton Medical Clinic",103.84311774345,1.27712012192209
"E MEDICAL CLINIC & SURGERY",103.845130852041,1.33781465664298
"E. L. CHIN FAMILY CLINIC & SURGERY PTE. LTD.",103.762740587674,1.31402057647513
"E.J. TAN CLINIC & SURGERY",103.737623303578,1.33658465341547
"EAST COAST FAMILY CLINIC",103.894446070261,1.29769266267746
"EAST COAST MEDICAL CENTRE PTE LTD",103.941288714677,1.32371678656959
"EASTERN CLINIC & SURGERY PTE LTD",103.742159955431,1.33997597903837
"EASTERN CLINIC & SURGERY PTE LTD",103.73056069188,1.34750822879295
"EASTERN CLINIC AND DENTAL SURGERY",103.735622181592,1.34485611221062
"EASTERN MEDICAL CENTRE",103.914941831149,1.33295923548327
"EC Family Clinic",103.903047958629,1.31976065842876
"EDGEDALE MEDICAL CLINIC",103.90910656253,1.39350981246858
"EH MEDICAL FAMILY CLINIC (BUKIT BATOK)",103.755375174448,1.34449810534059
"EH Medical",103.805487571931,1.44680413878616
"EHA CLINIC @ Jurong",103.725180466271,1.34994543580238
"EJ FAMILY CLINIC & SURGERY",103.846202461177,1.34123727109327
"FONG CLINIC",103.802856952292,1.2922546717017
"EL SHADDAI ARTHRITIS + RHEUMATISM SPECIALIST MEDICAL CENTRE",103.862002015014,1.32058609482407
"ELIAS FAMILY CLINIC & SURGERY",103.941978174961,1.37860239755804
"EMMANUEL MEDICAL CLINIC",103.95028148718,1.34915941815592
"EON MEDICAL CLINIC",103.900675272909,1.37571547934496
"ESSENTIAL FAMILY CLINIC & SURGERY",103.800131263153,1.43409799393499
"ESTEEMED MEDICAL CLINIC",103.834501165254,1.36891592440303
"ESTHER YEO CLINIC",103.738263366894,1.34416527281328
"ETERN MEDICAL CLINIC (PUNGGOL SUMANG LRT)",103.899074358389,1.40800694968972
"EVANGEL MEDICAL CLINIC",103.924803599547,1.32727572409468
"EVERCARE MEDICAL CLINIC",103.744393648371,1.37736607411235
"EVERCARE MEDICAL CLINIC (475) PTE LTD",103.739015486131,1.37789727696934
"EVERHEALTH FAMILY CLINIC & SURGERY",103.697732090659,1.34874357156987
"FAMILY HEALTHCARE CLINIC & SURGERY PTE LTD",103.890706990241,1.37372091211225
"FAMILY LIFE CLINIC",103.763817745262,1.3046248764802
"FAMILY MEDICAL CLINIC PTE LTD",103.757044584459,1.3477014777938
"FAMILY MEDICARE CLINIC & SURGERY",103.847899479496,1.37234984800157
"FAMILY MEDICINE CLINIC",103.914026029639,1.30611781278668
"FAMILYCARE CLINIC & SURGERY",103.847479439025,1.33628570923804
"FEMA CLINIC & SURGERY",103.844160709873,1.3207051098625
"FINEST HEALTH MEDICAL CENTRE",103.856504185567,1.33528228586453
"FIRST CARE FAMILY CLINIC & SURGERY",103.736785753592,1.34318835753237
"FIRST MEDICAL CENTRE PTE LTD",103.803105949038,1.29043486494243
"FIRST MEDICAL CLINIC & SURGERY",103.775884057974,1.43359370625977
"FIRSTHEALTH CLINIC & SURGERY",103.829470015099,1.28253466924079
"FOCUS MEDICAL CENTRE",103.752483840899,1.38004753002611
"FOO CLINIC",103.69148311528,1.34201784065971
"FRASER MEDICAL CENTRE",103.808980553653,1.27338751529297
"FRIENDSHIP CLINIC & SURGERY",103.808242400061,1.28645354013154
"FRONTIER MEDICAL ASSOCIATES",103.879309094037,1.38085035421403
"FRONTIER MEDICAL ASSOCIATES",103.838176471518,1.37354853932334
"FRONTIER MEDICAL ASSOCIATES",103.901228610039,1.32955256814021
"FRONTIER MEDICAL ASSOCIATES",103.795261266782,1.43656985620916
"FRONTIER MEDICAL ASSOCIATES",103.840410312781,1.42305346406148
"FRONTIER MEDICAL ASSOCIATES",103.8324062093,1.44885888645002
"FRONTIER MEDICAL ASSOCIATES",103.739303105448,1.35572308150266
"FRONTIER MEDICAL ASSOCIATES",103.743948447105,1.35303824914482
"FRONTIER MEDICAL ASSOCIATES",103.806198056521,1.44062992413871
"FULLERTON HEALTH @ DRS TRYTHALL HOY DAVIES",103.834676124776,1.30242417185937
"FULLERTON HEALTHCARE @ ARC",103.801264139133,1.27398640019417
"FUSION MEDICAL HEALTH SCREENING & AESTHETIC",103.830642027915,1.30467628686208
"Faith Clinic (Jurong West)",103.697732090659,1.34874357156987
"Famicare Bedok Clinic Pte Ltd",103.945086743402,1.31873582672514
"Family Doctors at 365",103.720184719407,1.33772592748385
"Family Medicine Clinic Chinatown",103.844697080902,1.28499882861736
"Fernvale Family Clinic",103.873437403062,1.38919466650292
"First Light Family Clinic & Surgery",103.757864718234,1.34879030670709
"Foo And Ong Family Clinic Pte. Ltd.",103.744211484368,1.34874703498808
"Frontier Family Medicine Clinic",103.76514748726,1.3142704390532
"Frontier Medical Associates",103.703395356357,1.34486489516062
"Frontier People's Clinic",103.937343348132,1.32919868633173
"Fullerton Health @ NTU",103.682668844091,1.34536991705032
"Fullerton Health @ OFC",103.851909612057,1.28320475137081
"Fullerton Health @ Watsons (Changi City Point)",103.962946072076,1.33408360486513
"Fullerton Healthcare @ Drs Trythall Hoy Davies",103.706685012636,1.33945271688955
"Fullerton Healthcare @ Gethin-Jones",103.84529056569,1.2732000622671
"Fullerton Healthcare @ MBFC",103.85374955327,1.27946938564498
"Fullerton Healthcare @ Metropolis",103.791237458059,1.30624556797731
"Fullerton Healthcare Screening Centre",103.834676124776,1.30242417185937
"Fusion Medical & Health Screening Centre",103.789607732973,1.29925468196734
"G & H MEDICAL CLINIC PTE LTD",103.827452004281,1.43147861410692
"G.I.F.T MEDICAL CENTRE",103.878829907545,1.33317933421739
"GARDEN CLINIC",103.867773013652,1.35381345318208
"GEYLANG BAHRU CLINIC",103.871651573599,1.31543175845042
"GLOBAL CARE MEDICAL",103.825776599298,1.44381831615093
"GOH CLINIC & SURGERY",103.884988426823,1.3588191151875
"HUA MEI CLINIC, WHAMPOA",103.857201210738,1.32486749271072
"HUAN CLINIC",103.842029779252,1.2874030082089
"HUI CLINIC + SURGERY",103.839395071325,1.37530562129984
"HWANG & LIANG FAMILY CLINIC & SURGERY",103.95335936462,1.36092283905723
"Hamid Family Clinic & Surgery",103.962895349626,1.36408364491692
"Health First Family Clinic",103.825595753279,1.28263437658533
"HealthMatters - The Family Practice",103.955444757708,1.37912717895311
"HealthMed Family Clinic (Bukit Panjang)",103.768454110363,1.38319686720506
"Healthcare AMK Medical Clinic",103.839395071325,1.37530562129984
"Healthcare Hougang Medical Clinic",103.894853675365,1.36566733051337
"Healthlife Family Clinic",103.746409176593,1.34409358188013
"Healthmark Family Clinic (Compassvale)",103.896042267939,1.39484816497783
"Healthmark Family Medicine Clinic",103.744921736282,1.39693363037626
"Healthmark Medical Clinic",103.916054652799,1.39944615058909
"Healthmark Pioneer Mall Clinic",103.697174842354,1.34169239237791
"Healthpath Medical Clinic and Surgery",103.848986957423,1.3638957019431
"Healthsprings Medical & Laser Clinic",103.870430572629,1.33400699198631
"Healthsprings Medical Clinic",103.766228468168,1.38540569301034
"Healthway Medical",103.934249434387,1.32749295502142
"Healthway Medical",103.893775562591,1.37249493836098
"Healthway Medical",103.913047323352,1.39423719749383
"Healthway Medical",103.945102946946,1.35580335647499
"Healthway Medical",103.848854818027,1.33390034089973
"Healthway Medical",103.890093177136,1.3527739328609
"Healthway Medical",103.849007895658,1.27796672374231
"Healthway Medical",103.901841043722,1.38533736141014
"FAMILY HEALTHCARE CLINIC & SURGERY",103.873778334173,1.36934534973621
"Healthway Medical",103.79531438351,1.43712301469225
"Healthway Medical",103.953586491461,1.35226231434834
"Healthway Medical",103.827667722133,1.43053575388582
"Healthway Medical",103.859085390214,1.31799485295601
"Healthway Medical",103.849972823964,1.42841471934027
"Healthway Medical",103.89704655689,1.38374441791265
"Healthway Medical",103.844160709873,1.3207051098625
"Lim Clinic",103.855357145899,1.36776095160051
"Healthway Medical",103.763817745262,1.3046248764802
"Healthway Medical",103.886426650155,1.38955848478423
"Healthway Medical",103.691459639169,1.34138531152671
"Healthway Medical",103.739015486131,1.37789727696934
"Healthway Medical",103.847899479496,1.37234984800157
"Healthway Medical",103.937730608185,1.35860238778915
"Healthway Medical",103.764010395269,1.31421051604588
"Healthway Medical",103.819502127479,1.44819535415187
"Healthway Medical",103.744276460475,1.34747947809009
"Healthway Medical",103.799494171179,1.44087378957359
"Healthway Medical",103.856200835268,1.36889751154086
"Healthwerkz Medical Centre (CCK)",103.744889593655,1.38109065346169
"Healthwerkz medical centre @ orchard",103.832128173794,1.3065470470191
"Heartland Family Clinic",103.845790190573,1.43188998725882
"HeartlandHealth",103.855735558254,1.32328917056723
"Hill Spring Medical",103.829175553654,1.37154719878388
"Hisemainn Medical Clinic (Bukit Batok)",103.759431387572,1.34417029371853
"Hisemainn Medical Clinic (Jurong West)",103.703725312401,1.35361178019917
"Horizon Medical Centre",103.836053648693,1.35184499139998
"LIFELINE BISHAN MEDICAL CLINIC",103.84907733333,1.34841689766538
"LIFELINE BUKIT PANJANG MEDICAL CLINIC",103.768538441068,1.37867070866309
"LIFELINE MEDICAL CENTRE",103.761518107763,1.30628911897632
"LIFELINE MEDICAL GROUP",103.901841043722,1.38533736141014
"LIFELINE NEIGHBOURHOOD MEDICAL CLINIC",103.757044584459,1.3477014777938
"LIFELINE PUNGGOL MEDICAL CLINIC PTE LTD",103.906402433947,1.39946295696544
"LIFELINE YISHUN RING MEDICAL CLINIC",103.834641578841,1.41678634673088
"LIFELINK SN CLINIC & SURGERY",103.872312298307,1.36995099695439
"LILY AW PASIR RIS FAMILY CLINIC & SURGERY",103.957726864829,1.37030619330386
"LIM CLINIC & SURGERY",103.922885287164,1.32627271273425
"LIM CLINIC & SURGERY",103.846202461177,1.34123727109327
"LIN & SONS CLINIC & SURGERY PTE LTD",103.754071399254,1.37829768774576
"LIVEWELL MEDICAL FAMILY CLINIC",103.846554377717,1.3269450448725
"LO & LEE CLINIC & SURGERY",103.886509353222,1.35046468301438
"LOH CLINIC",103.878442674599,1.31733721507169
"KONG KIAN CLINIC",103.885032593446,1.34010827019145
"LONDON (MH) CLINIC & SURGERY",103.890318475998,1.35478438650586
"LOW & LEE CLINIC & SURGERY",103.919015572902,1.32684846987483
"LOW MEDICAL CLINIC",103.869336175072,1.3213944644766
"LUM CLINIC & SURGERY",103.825310761058,1.27392939913176
"LUSUMU Family Clinic",103.927020293721,1.33371332045971
"Lakeside Family Medicine Clinic",103.71885762802,1.34513828527898
"Lee Respiratory and Sleep Clinic",103.837601167324,1.34182282585918
"Lian Clinic",103.777861242043,1.44341700675837
"Lifescan Medical Centre",103.835857545111,1.30387230856356
"Lily Neo Clinic Pte Ltd",103.843252763122,1.32047597480701
"Hua Mei Clinic",103.828093503377,1.28629937149605
"I-HEALTH MEDICAL CLINIC",103.864049815076,1.31930336749337
"ICON MEDICAL CLINIC",103.71972430603,1.34584959191131
"IDOC CLINIC (HONG KAH) PTE LTD",103.718334683532,1.3505012764805
"INTEMEDICAL 24 HOUR CLINIC",103.853976743936,1.37262666866782
"ISLAND FAMILY CLINIC (ANCHORVALE)",103.889653919266,1.39922857033118
"ISLAND FAMILY CLINIC (FERNVALE)",103.881232764558,1.39785974899126
"ISLAND FAMILY CLINIC (KEAT HONG)",103.742759621795,1.37415533414763
"Integrated Wellness Clinic",103.844782386419,1.32003005040623
"Island Family Clinic & Endoscopy Centre",103.889653919266,1.39922857033118
"Island Family Clinic (Bedok)",103.93483060668,1.33607209518397
"Island Family Clinic (Bukit Batok)",103.739809933345,1.35269613886399
"Island Family Clinic (Sengkang)",103.893038290272,1.38621835450901
"Island Medical Clinic",103.842154838462,1.3195180026839
"JAPAN CLINIC AND SURGERY",103.860269172947,1.30764582352943
"JIREH FAMILY CLINIC",103.790548015767,1.44275333234585
"JJ CLINIC & SURGERY",103.837381409799,1.37138400101395
"JO-LIN FAMILY CLINIC & SURGERY",103.743099573448,1.39207388757417
"JOY CLINIC AND SURGERY",103.835446503405,1.41562517359593
"JOY FAMILY CLINIC",103.91989305506,1.33716507465033
"JUBILEE FAMILY PHYSICIANS",103.964632224965,1.36707357511654
"JURONG EAST CLINIC",103.734609974421,1.33921386441237
"JW Corporation Clinic Pte Ltd",103.71842993374,1.34902708947199
"Jade Medical Clinic Pte Ltd",103.84679624319,1.28895619965092
"Jane & Lee Sembawang Family Clinic",103.815580869089,1.45603699743209
"Jireh Heart centre",103.844212383776,1.32214005414322
"Joash Family Clinic & Surgery",103.888536901518,1.36298113879038
"JoyHealth Medical Clinic & Surgery",103.932787707033,1.34943750949191
"K L TAY CLINIC & SURGERY",103.914145075391,1.3320509461928
"K N CHIN & ASSOCIATES PTE LTD",103.852130314179,1.28385576222736
"K N CHIN & ASSOCIATES PTE LTD Medical Practice",103.859014406987,1.29593189474123
"K. B. TAN CLINIC & LASER SURGERY",103.941978174961,1.37860239755804
"K2 MEDICAL CLINIC",103.953541142784,1.34359376286677
"KALLANG BAHRU FAMILY CLINIC PTE. LTD.",103.869914603946,1.32066445659415
"KANG AN CLINIC PTE LTD",103.751790332685,1.34866680951042
"KANG CLINIC",103.854594160953,1.37380851529933
"KAO & TAN FAMILY MEDICAL CENTRE & SURGERY PTE LTD",103.826785447839,1.28569742860668
"KARRI FAMILY CLINIC",103.934477898456,1.35536454222897
"KCS Medical Centre Pte Ltd",103.92996022996,1.33186656501132
"KEAT HONG FAMILY MEDICINE CLINIC",103.74494935896,1.3840958723943
"KEPPEL MEDICAL GROUP",103.819408460582,1.27740785896679
"KHO CLINIC",103.924236461317,1.33177300798251
"KHOO CLINIC & SURGERY",103.887787767312,1.36228493590194
"KILLINEY MEDICAL CLINIC",103.839550953076,1.2989203432892
"KIM TIAN CLINIC",103.83250362737,1.28424655163417
"KING GEORGE'S MEDICAL CLINIC PTE LTD",103.860912780811,1.30836526388985
"KL NG MEDICAL CLINIC PTE LTD",103.808242400061,1.28645354013154
"KO FAMILY CLINIC",103.872301458327,1.31480351435198
"KOH CLINIC & SURGERY",103.742824825687,1.34715255026952
"KOH'S T & T CLINIC AND SURGERY PTE. LTD.",103.870134574381,1.35381198304475
"Kai Medical Clinic",103.960042188158,1.35436493798362
"Katong Family Clinic Pte Ltd",103.895551267298,1.30780276675294
"Kelinik Maju",103.89822067311,1.31811559243751
"Kenneth Loo Family Clinic",103.854641447659,1.34565720338064
"Kenneth Tan Medical Clinic",103.919352747597,1.39990420685096
"Ki Medical Clinic",103.855103690664,1.36454170930926
"Kin Mun Clinic",103.851778402295,1.33501332560942
"L & H POLYCLINIC AND SURGERY",103.814352117212,1.28879800624276
"L & L FAMILY MEDICINE CLINIC",103.83640721143,1.35286373397832
"L'ving Vine Medical & Wellness Clinic",103.766131294904,1.30369748988215
"LAI MEDICAL CLINIC PTE LTD",103.752496875132,1.34681845431119
"LAN MEDICAL CLINIC & SURGERY",103.766910446786,1.32105184993965
"LAVENDER MEDICAL CLINIC & SURGERY PTE LTD",103.860912780811,1.30836526388985
"LC Clinic Medical Surgery Aesthetics",103.764927758834,1.31251305739568
"LEE & KOH FAMILY CLINIC",103.751230683361,1.36134370364268
"LEE CLINIC",103.904770224664,1.30659584489558
"LEE CLINIC",103.937343348132,1.32919868633173
"LEE CLINIC AND SURGERY",103.850224901617,1.37485973000549
"LEE FAMILY CLINIC PTE. LTD.",103.697732090659,1.34874357156987
"LEONG CLINIC",103.815318433238,1.28907506818611
"LER CLINIC & SURGERY",103.933863132113,1.351138337645
"LIANG CLINIC",103.923185592863,1.31260423076805
"LIEW CLINIC & SURGERY",103.821532226324,1.28513427063832
"LIFE FAMILY CLINIC",103.846516327213,1.37145809323897
"LIFE FAMILY CLINIC",103.74435225035,1.38533510950362
"LIFE-LINK CLINIC & SURGERY",103.957726864829,1.37030619330386
"LIFECARE FAMILY CLINIC",103.766228468168,1.38540569301034
"LIFECARE FAMILY CLINIC & SURGERY",103.828762985206,1.43061830395979
"LIFECARE FAMILY CLINIC & SURGERY",103.890680792157,1.35370297114613
"LIFECARE MEDICAL CENTRE",103.886930797614,1.32902607935956
"HEALTHLINK MEDICAL CLINIC & SURGERY",103.879898474189,1.33372866023576
"HEALTHMARK CLINIC (PASIR RIS)",103.936574613556,1.37966812078368
"HEALTHPLUS CLINIC & SURGERY",103.914941831149,1.33295923548327
"HEALTHPLUS FAMILY CLINIC & SURGERY",103.808980553653,1.27338751529297
"HEALTHPOINT FAMILY CLINIC & SURGERY PTE LTD",103.797626151203,1.30078900913879
"HEALTHWAY MEDICAL",103.846329063086,1.4243850677914
"HEALTHWAY MEDICAL",103.910853622903,1.32365345260201
"HEALTHWAY MEDICAL",103.851030689601,1.36243186375124
"HEALTHWAY MEDICAL",103.816977584507,1.45292980559221
"HEALTHWAY MEDICAL",103.742766383664,1.33415754643914
"HEALTHWAY MEDICAL",103.833450479218,1.42751898225106
"HEALTHWAY MEDICAL CLINIC",103.743190998217,1.39224240557078
"HEALTHWERKZ MEDICAL CENTRE @ SEMB MRT",103.820139486431,1.44902668521597
"HEALTHWISE MEDICAL CLINIC & SURGERY",103.884763845833,1.30782736795111
"HK FAMILY CLINIC & SURGERY PTE LTD",103.854644986918,1.36271541943285
"HL CLINIC PTE LTD",103.819408460582,1.27740785896679
"HL FAMILY CLINIC & SURGERY PTE LTD",103.826185854452,1.28032113582023
"HL FAMILY CLINIC & SURGERY(BEDOK) PTE LTD",103.938051284815,1.3323346834519
"HO MEDICAL CENTRE PTE LTD",103.771350557955,1.31427860262492
"HO MEDICAL CLINIC",103.843980123077,1.28577009942741
"HO TONG CLINIC",103.886010316195,1.32915899651205
"HONG ASSOCIATES CLINIC",103.826185854452,1.28032113582023
"HONG FAMILY CLINIC",103.952436775108,1.34775409914604
"HONG'S CLINIC PEOPLE'S PARK CENTRE",103.843980123077,1.28577009942741
"HOPE FAMILY CLINIC AND SURGERY",103.790548015767,1.44275333234585
"HOUGANG FAMILY MEDICINE CLINIC",103.882931930103,1.3753225375634
"PRINCETON FAMILY CLINIC PTE LTD.",103.77076830515,1.38358044593591
"PRO-LIFE MEDICAL ASSOCIATES",103.744393648371,1.37736607411235
"PROCROSS MEDICAL CENTRE",103.895153601889,1.37878098225427
"PROHEALTH 24-HOUR MEDICAL CLINIC",103.773310086642,1.37704293097595
"PROHEALTH MEDICAL GROUP @ BUANGKOK PTE LTD",103.893713485412,1.38290495770245
"PROHEALTH MEDICAL GROUP @LRT FERNVALE PTE LTD",103.876330395063,1.39255040576997
"PROVIDENCE CLINIC @ BALESTIER",103.850395374008,1.32572472592378
"PSALMS FAMILY CLINIC",103.837605236392,1.43611425443645
"PUBLIC MEDICAL CLINIC & SURGERY",103.841074642965,1.4201998655916
"PULSE CLINIC PTE LTD",103.827290023429,1.28855393147757
"PUNGGOL FAMILY CLINIC PTE. LTD.",103.897501361321,1.41124703487775
"Pacific Medical Clinic",103.835857545111,1.30387230856356
"PanCare Medical Clinic",103.842644163602,1.37113968579534
"PanHealth Family Clinic",103.900614671741,1.41135309600349
"Pariqua Clinic",103.866812029635,1.32339741230277
"Parklane Medical Centre",103.849448611741,1.30064530182129
"Parkway Shenton Medical Group",103.765476756799,1.31248298515734
"Parkway Shenton Medical Group",103.894894916119,1.31899666916027
"Parkway Shenton Medical Group",103.885167372761,1.35954177322502
"Parkway Shenton Medical Group",103.96657136529,1.33483540517389
"Parkway Shenton Medical Group",103.913215100957,1.4027801572994
"ParkwayHealth Primary Care Network",103.85206894582,1.28361958417727
"Parsons Medical Clinic Pte Ltd",103.833261316719,1.42214461370293
"Peace Family Clinic (WL832)",103.790761499043,1.43966937731987
"Peak Medical Clinic & Surgery",103.937510784032,1.36088277451527
"Phoenix Medical Group",103.869135978399,1.387395393577
"Phoenix Medical Group (Hillview)",103.764172920441,1.36267450798777
"New Town Clinic Pte Ltd",103.940695612374,1.32405898637368
"Northeast Medical Group",103.953377214636,1.34319707870222
"Northeast Medical Group",103.945144586726,1.35330167667677
"Northeast Medical Group",103.749566478137,1.34903331182218
"Northeast Medical Group",103.786255228682,1.30814746868332
"Norwood Medical Clinic",103.805487571931,1.44680413878616
"Novena Medical Center Family Clinic",103.844160709873,1.3207051098625
"NuHealth Medical Centre",103.760139846504,1.38032239850194
"Nyam Family Clinic",103.948582654929,1.33156190358539
"O2 Medical Clinic",103.947922425172,1.36968625480057
"OC MEDICAL RAFFLES PLACE",103.851072545442,1.28434954581843
"OEI & KHO CLINIC AND SURGERY",103.856789628566,1.33575723636727
"OGL MEDICAL CENTERS",103.844160709873,1.3207051098625
"OGL MEDICAL JURONG EAST",103.730588041072,1.34438071297667
"OGL MEDICAL QUEENSTOWN",103.802806668566,1.29274038368447
"ONECARE CLINIC ALJUNIED MRT",103.882964033687,1.31644118839199
"ONECARE CLINIC AMK CHENG SAN PTE LTD",103.854382572738,1.37332712954829
"ONECARE CLINIC BEDOK MRT",103.92995373635,1.32398184936043
"ONECARE CLINIC CLEMENTI",103.7648099668,1.31361567922805
"ONECARE CLINIC FERNVALE",103.879874611056,1.39158623013568
"ONECARE CLINIC HOUGANG AVE 8",103.885679159796,1.37297840263115
"ONECARE CLINIC PUNGGOL PLAZA",103.913047323352,1.39423719749383
"ONECARE CLINIC TAMPINES MRT",103.945144586726,1.35330167667677
"ONELIFE FAMILY CLINIC",103.743190998217,1.39224240557078
"ONG'S CLINIC",103.852700214599,1.3022432705157
"ORCHARD GROUP CLINIC",103.829984821697,1.30550610766275
"OUR FAMILY CLINIC & SURGERY PTE LTD",103.883179671945,1.30263933997545
"Physicians Practice Family Medical Center",103.843611442751,1.31719450971532
"Pidemco Medical Centre Pte Ltd",103.83356775674,1.43188761931188
"Lim Clinic",103.907117852416,1.31819877434977
"Little Cross Family Clinic Pte Ltd",103.939613985216,1.34639172452995
"M LAM CLINIC",103.890469845778,1.31497431972343
"M Medical Clinic",103.85527273394,1.31372067347715
"MACPHERSON MEDICAL CLINIC",103.885220313162,1.32788057151947
"MANDARIN MEDICAL CENTRE",103.773903901185,1.34056695989911
"MANHATTAN MEDICAL CENTRE",103.84081324769,1.28703443818283
"MARINA MEDICAL CENTRE (TIONG BAHRU)",103.831014548809,1.28332611342005
"MARINE PARADE CLINIC",103.914721779196,1.30585966577796
"MARINE TERRACE FAMILY CLINIC",103.91548479998,1.30651257339373
"MAY MEDICAL CLINIC & SURGERY PTE LTD",103.793463530856,1.30762004868338
"MAYFAIR MEDICAL CLINIC",103.77602334337,1.43515895107837
"MD INTERNATIONAL MEDICAL CENTRE",103.819135632329,1.30847204130269
"MEDI CLINIC",103.839614514953,1.28857969896702
"MEDICA CLINIC",103.885679159796,1.37297840263115
"MEDICAL AESTHETICS",103.885679159796,1.37297840263115
"MEDICAL AESTHETICS",103.765476305113,1.31353886094619
"MEDICAL AND DENTAL CENTRE @ COMMONWEALTH",103.798021743481,1.30203802186463
"MEDICARE ASSOCIATES",103.953000934042,1.36163049159223
"MEDICO CLINIC & SURGERY",103.739259690046,1.34256242271947
"MEDIHEALTH BISHAN CLINIC & SURGERY",103.851049225039,1.34718667802698
"MEDILIFE CLINIC & SURGERY",103.952787602752,1.3598729915218
"MEDILINE WEI MIN CLINIC",103.907073248069,1.30264128620025
"MEDINA MEDICAL CENTRE",103.953567370888,1.36143356274786
"MEDIPOINT MEDICAL CENTRE (PONGGOL BRANCH)",103.896994161671,1.3748433946064
"MEDIPOINT MEDICAL CENTRE (WOODLANDS BRANCH)",103.793927429127,1.43089714599658
"MEDIVENE CLINIC & SURGERY",103.889246755478,1.39684979899238
"MEDLIFE CLINIC & SURGERY",103.886898456404,1.37395840472847
"MEI LING CLINIC",103.802806668566,1.29274038368447
"MEI LING CLINIC (TOA PAYOH)",103.847092284339,1.33285542877339
"MERIDIAN MEDICAL AND DENTAL CENTRE",103.895987624634,1.36830683228958
"MHC FAMILY CLINIC (ANG MO KIO)",103.856200835268,1.36889751154086
"N B THAM CLINIC PTE LTD",103.853367215257,1.3224904462066
"MILFORD MEDICAL GROUP",103.870134574381,1.35381198304475
"MILLENNIUM MEDICAL GROUP",103.792065607546,1.44131059420711
"MILLENNIUM MEDICAL GROUP",103.743099573448,1.39207388757417
"MINMED CLINIC (HAIG ROAD)",103.895731869996,1.3132165367769
"MINMED CLINIC (PASIR RIS)",103.949715695148,1.37244981704712
"MINMED CLINIC (PUNGGOL)",103.902105681174,1.40648462103214
"MINMED CLINIC (YISHUN)",103.836177650724,1.42790289016825
"MINT MEDICAL CENTRE (FUNAN)",103.849989789705,1.2913475971014
"MISSION MEDICAL CLINIC",103.879280959211,1.35450868285372
"MOBILEDOCTOR CLINIC",103.847469683651,1.2837457628788
"MUTUAL HEALTHCARE MEDICAL CLINIC",103.890466406973,1.39139722628005
"MUTUAL HEALTHCARE MEDICAL CLINIC",103.908344134041,1.39660486039663
"MY DOCTOR'S PLACE PTE LTD",103.934249434387,1.32749295502142
"MY FAMILY CLINIC (ANCHORVALE)",103.888000137553,1.39491417281225
"MY FAMILY CLINIC (CHOA CHU KANG)",103.739015486131,1.37789727696934
"MY FAMILY CLINIC (CLEMENTI 325) PTE LTD",103.766817400699,1.31509668516835
"MY FAMILY CLINIC (SEGAR)",103.771312569595,1.38868132350767
"MY FAMILY CLINIC (ST GEORGE)",103.863267718732,1.32241677134775
"MY FAMILY CLINIC (WOODLANDS GLEN)",103.7985076215,1.43109807249328
"MY FAMILY CLINIC (WOODLANDS)",103.798140993881,1.44562290748789
"MYDOCTOR@ADMIRALTY PTE LTD",103.80376495913,1.43808788035983
"MYHEALTH MEDICAL CENTRE",103.75886443455,1.31129566349864
"Make-Well Family Clinic & Surgery",103.852333287775,1.33444874920961
"Mary Medical Clinic and Surgery",103.738145286322,1.34302644245795
"Mayfair Medical Clinic (Yishun Chong Pang)",103.828892847597,1.43136934942161
"Medi Healthcare Clinic (Punggol)",103.895387022161,1.40322712503317
"Medic Surgical & Laser Clinic",103.842433596845,1.27568702794453
"Medivale Medical Clinic",103.83899894357,1.43416807953309
"Mediview Clinic and Surgery",103.84451622696,1.33378519647731
"Meridian Medical Centre",103.810292617921,1.28084469424139
"Minmed Clinic (Jurong East)",103.743278742127,1.33329334481438
"Minmed Clinic (Sengkang)",103.895070543472,1.39205314124118
"Minmed Health Screeners",103.835857545111,1.30387230856356
"Mint Medical Centre",103.819139250561,1.26477806953607
"Mission (Bukit Batok) Medical Clinic",103.751896006132,1.36393821477867
"Mission (Hougang) Medical Clinic",103.898813147316,1.37259314180223
"Mission Cross Family Clinic",103.842930213631,1.42662488360089
"Mount Alvernia Outreach Medical Clinic",103.814818125298,1.28736604111919
"Mount Alvernia Outreach Medical Clinic",103.856985734384,1.3400817316314
"Mutual Healthcare Medical Clinic",103.896966679981,1.38603998431281
"My Family Clinic (Angsana Breeze @ Yishun)",103.83982778486,1.41517413108586
"My Family Clinic (Clementi)",103.768657660932,1.30979102118924
"My Family Clinic (Hougang Central)",103.894473676698,1.37115128104866
"My Family Clinic (Pioneer)",103.697174842354,1.34169239237791
"My Family Clinic (Punggol Central)",103.906138007036,1.40371939727893
"My Family Clinic (Rivervale)",103.904483668484,1.39250411008759
"My Family Clinic (Senja)",103.760410617966,1.38512867357186
"My Family Clinic (Tanglin Halt)",103.798227586733,1.29996199426431
"My Family Clinic? (Toa Payoh Central)",103.849165515059,1.33464084342805
"My doctor @ Lakeside",103.720949087875,1.34425911463583
"NATIONAL CLINIC",103.771350557955,1.31427860262492
"NCS Medical Clinic",103.844038054823,1.38789128850575
"NEECARE MEDICAL CENTRE",103.75069463099,1.35925940880518
"NEIGHBOURHOOD MEDICAL CLINIC",103.886367847372,1.37331270083797
"NEO CLINIC  & SURGERY",103.773212348102,1.37850873569471
"NEO MEDICAL CENTRE",103.863387980485,1.33545353276581
"NEOH & ONG MEDICAL CLINIC",103.903193510186,1.32020110490051
"NEW HEALTH FAMILY CLINIC Pte Ltd",103.810292617921,1.28084469424139
"NEW TOWN CLINIC",103.870914031071,1.31423937057055
"NEWCASTLE CLINIC",103.830722581301,1.30508722668002
"NEWEST MEDICAL AND LASER CLINIC PTE LTD",103.757451263607,1.31641321897956
"NEWLIFE FAMILY CLINIC & SURGERY",103.738292803759,1.32213636288697
"NORTHEAST MEDICAL GROUP",103.926153139378,1.33312991887095
"NORTHEAST MEDICAL GROUP",103.895508170861,1.39174613260021
"NORTHEAST MEDICAL GROUP",103.850862398592,1.28394905743259
"NORTHEAST MEDICAL GROUP",103.885092299821,1.30782060284175
"NORTHEAST MEDICAL GROUP",103.849558091899,1.36993284966753
"NORTHLAND FAMILY CLINIC & SURGERY",103.838806520716,1.42106180506188
"NOVO VITA CLINIC AND SURGERY",103.828178444729,1.28018941897319
"NTUC Health Family Medicine Clinic",103.872103136189,1.35227519863723
"NUFFIELD MEDICAL SIGLAP",103.92444984956,1.31205928217535
"NUTRAMED CLINIC",103.837359153263,1.30139878843175
"Neptune Healthcare Medical & Surgery",103.958287519159,1.3531661754088
"Healthway Medical",103.941978174961,1.37860239755804
"Healthway Medical",103.861087462865,1.31942539044681
"One Medical Clinic",103.697698311825,1.34609844042057
"OneCare Clinic Boon Lay",103.712429315355,1.3463481965558
"OneCare Clinic Canberra",103.8324062093,1.44885888645002
"OneCare Clinic Woodlands",103.779881892363,1.43354318103334
"OneDoctors Family Clinic",103.848186835446,1.3710458307609
"OneDoctors Family Clinic",103.795582039212,1.3113303854717
"OneDoctors Family Clinic",103.834641578841,1.41678634673088
"OneDoctors Family Clinic",103.902105681174,1.40648462103214
"OneDoctors Medical Centre",103.872296143433,1.35076935223904
"Onecare Clinic Bukit Batok",103.749914947577,1.35008771762775
"Onecare Clinic Bukit Gombak MRT",103.751883836082,1.35871216216159
"Onecare Clinic Bukit Panjang",103.769575386975,1.3882402170722
"Onecare Clinic Choa Chu Kang",103.746160941802,1.3740546177535
"Onecare Clinic Hougang",103.890318475998,1.35478438650586
"Onecare Clinic Loyang",103.964632224965,1.36707357511654
"Onecare Clinic Marine Parade",103.907073248069,1.30264128620025
"Onecare Clinic Tampines",103.933719246548,1.34972149524439
"Onecare Clinic Tiong Bahru",103.828789865619,1.2863657812581
"Onecare Clinic Yishun",103.84758940791,1.42026334154091
"Oneness Medical",103.797080329535,1.30697526841647
"Ong Clinic & Surgery (Yishun)",103.837605236392,1.43611425443645
"Ong Clinic & Surgery Pte Ltd",103.759862833379,1.35000840233326
"Ong Medical Clinic",103.847677034523,1.36462540282437
"P Tan Family Medicine Clinic",103.848047514409,1.34903237568207
"PACIFIC FAMILY CLINIC",103.815711568942,1.28846476848129
"PACIFIC MEDICAL & DENTAL GROUP",103.827449409203,1.42615726590364
"PAN ISLAND CLINIC & SURGERY",103.914145075391,1.3320509461928
"PANDAN CLINIC PTE LTD",103.748258627183,1.3207654337316
"PANHEALTH FAMILY CLINIC (HOUGANG)",103.882234928016,1.37512666138591
"PARKWAY SHENTON MEDICAL GROUP",103.849822465586,1.28093474477009
"PARKWAY SHENTON MEDICAL GROUP",103.764357180241,1.37992045165028
"PASIR RIS CLINIC & SURGERY PTE LTD",103.957951722637,1.36893288683695
"PEACE FAMILY CLINIC",103.786714412892,1.43228225786282
"PHOENIX CLINIC & SURGERY",103.756450878463,1.37820351167481
"PHOENIX MEDICAL GROUP ( CACTUS )",103.850468725618,1.39127591986847
"PHOENIX MEDICAL GROUP (PAYA LEBAR)",103.892580778371,1.3188148698027
"PHOON CLINIC AND SURGERY",103.914145075391,1.3320509461928
"PIER MEDICAL CENTRE",103.697719623525,1.34545354926714
"PINETREE MEDICAL CLINIC",103.938989345549,1.33254084334528
"PINNACLE FAMILY CLINIC (BUANGKOK SQUARE)",103.881623070219,1.38433426584339
"PINNACLE FAMILY CLINIC (COMPASSVALE)",103.896797882092,1.39755434211922
"PINNACLE FAMILY CLINIC (RIVER VALLEY)",103.842399200559,1.29420531470349
"PINNACLE FAMILY CLINIC (SERANGOON NORTH)",103.874103124264,1.37164118177384
"PINNACLE FAMILY CLINIC (WOODLANDS)",103.7985076215,1.43109807249328
"PIONEER MEDICARE",103.697237932753,1.33378307228245
"PJ CLINIC",103.827180352617,1.28830079134407
"PLATINUM MEDICAL CLINIC AND SURGERY PTE LTD",103.844255308291,1.41600481783693
"PLUSHEALTH MEDICAL CLINIC & SURGERY",103.854988582289,1.32363913739046
"POINT MEDICAL GROUP (TAMAN JURONG)",103.720462024234,1.33484487386451
"POW FAMILY CLINIC & SURGERY",103.883968140739,1.3701440067348
"PRAISE FAMILY CLINIC",103.935147321662,1.35881526999725
"PREMIER CLINIC & SURGERY PTE LTD",103.840735651129,1.3795572814979
"PRIME MEDICAL GROUP PTE LTD",103.835857545111,1.30387230856356
"RAFFLES EXECUTIVE MEDICAL CENTRE",103.856827693726,1.30120424133144
"RAFFLESMEDICAL",103.745011766594,1.38497459642175
"RAFFLESMEDICAL",103.893668163417,1.37119603325419
"RAFFLESMEDICAL",103.764927758834,1.31251305739568
"RAFFLESMEDICAL",103.929194613675,1.32574461340975
"RAFFLESMEDICAL",103.856827693726,1.30120424133144
"RafflesMedical",103.848854818027,1.33390034089973
"RAFFLESMEDICAL",103.76284278991,1.37843100797107
"RC'S FAMILY CLINIC PTE LTD",103.758433939114,1.38650187015926
"RCMC RIVERVALE CRESCENT MEDICAL CENTRE",103.908892267477,1.39045272949958
"REDWOOD @ TPY CLINIC AND SURGERY PTE. LTD.",103.847991955582,1.335787912335
"REDWOOD CLINIC AND SURGERY PTE LTD",103.816740972072,1.28963453428279
"REGIONAL PATIENTCARE MEDICAL GROUP PTE LTD (ADMIRALTY PLACE BRANCH)",103.801293104547,1.43998366603242
"REGIONAL PATIENTCARE MEDICAL GROUP PTE LTD (YISHUN CENTRAL BRANCH)",103.837150418545,1.4263621765255
"ROCHOR CENTRE CLINIC",103.852700214599,1.3022432705157
"ROCHOR MEDICAL CENTRE",103.855218715931,1.30658850151817
"ROWELL CLINIC & SURGERY",103.856495249842,1.3077805140901
"ROY'S FAMILY CLINIC & SURGERY",103.834641578841,1.41678634673088
"ROYAL CARE MEDICAL FAMILY CLINIC CHOA CHU KANG",103.748826771213,1.37802616205349
"ROYAL MEDICAL CENTRE",103.782059433299,1.43794381737826
"RUBY MEDICAL CENTRE PTE LTD",103.945616070638,1.35554848228485
"Radiant Medical + Aesthetic Centre",103.89336998978,1.37158744039625
"RafflesMedical",103.785981524566,1.43607006516889
"RafflesMedical",103.923185592863,1.31260423076805
"RafflesMedical",103.990348823433,1.36170882122938
"RafflesMedical",103.844748631654,1.35891907140489
"RafflesMedical",103.8527683243,1.29376028146733
"OXFORD MEDICAL CENTRE",103.936574613556,1.37966812078368
"Oasis Family Clinic",103.941082588112,1.32499379325103
"RafflesMedical",103.852133221714,1.28469772047007
"RafflesMedical",103.845738587261,1.2745218067199
"RafflesMedical",103.85702695548,1.29157395675943
"RafflesMedical",103.847572724937,1.27763073254434
"RafflesMedical",103.805009964275,1.28861469011507
"RafflesMedical",103.98656220853,1.35662609392547
"RafflesMedical",103.820243324874,1.26396991217473
"RafflesMedical",103.834676124776,1.30242417185937
"RafflesMedical",103.945071748026,1.35425637955977
"RafflesMedical",103.818727592719,1.44954485606328
"RafflesMedical",103.794773872292,1.33123001007666
"RafflesMedical",103.965668919257,1.33335127296395
"RafflesMedical",103.989066655162,1.35496948998212
"RafflesMedical",103.872296143433,1.35076935223904
"RafflesMedical",103.851255907838,1.27894102286765
"RafflesMedical",103.962946072076,1.33408360486513
"RafflesMedical",103.849316412869,1.2801374698432
"RafflesMedical",103.949715695148,1.37244981704712
"RafflesMedical",103.706685012636,1.33945271688955
"RafflesMedical",103.98656220853,1.35662609392547
"RafflesMedical",103.746637430571,1.39706712804272
"RafflesMedical",103.854457595507,1.27912493803888
"RafflesMedical",103.953024496638,1.34270619638735
"RafflesMedical",103.831970581405,1.30611334615777
"RafflesMedical",103.904483668484,1.39250411008759
"RafflesMedical",103.902105681174,1.40648462103214
"RafflesMedical",103.98481125361,1.34126241557138
"SUNBEAM MEDICAL CLINIC",103.888915861518,1.39382852232708
"SUNBEAM MEDICAL CLINIC",103.769732692211,1.38057053055556
"SUNNYVALE CLINIC & SURGERY",103.724307319672,1.34833335721941
"Saint-Julien Clinic for Diabetes & Endocrinology",103.853929522028,1.31247324146379
"Sembawang Mart Medical Centre",103.819619835472,1.45381060923032
"Sengkang Family Clinic",103.891156696939,1.38253437190713
"Senja Family Clinic",103.762010135614,1.38285734133979
"Shenton Family Medical Clinic",103.862002015014,1.32058609482407
"Shenton Medical Group",103.819139250561,1.26477806953607
"Shenton Medical Group",103.851899818693,1.28118338740689
"Shenton Medical Group",103.941978174961,1.37860239755804
"Shenton Medical Group",103.836340953733,1.30206450544267
"Shenton Medical Group",103.893122570095,1.3828700200017
"Shenton Medical Group",103.963121893503,1.33587129987692
"Shenton Medical Group",103.854463360255,1.2934030717761
"Shenton Medical Group",103.786066799339,1.43681962960776
"Shenton Medical Group",103.871939623607,1.35386322682384
"Shenton Medical Group",103.845130852041,1.33781465664298
"Shenton Medical Group",103.841268831273,1.41795288509924
"Shenton Medical Group",103.876125506847,1.39147015412078
"Shenton Wellness Centre",103.801264139133,1.27398640019417
"Shifa Clinic (Jurong)",103.719222201398,1.34981225393483
"Shine Family Clinic",103.723241115985,1.35057698682517
"Sia & Yeo Hougang Clinic Pte Ltd",103.88755572228,1.37755651165883
"Silver Cross Medical",103.718334683532,1.3505012764805
"Spring Medical Clinic (Old Airport Road)",103.885092299821,1.30782060284175
"RafflesMedical",103.796107173265,1.31056351487197
"RafflesMedical",103.895070543472,1.39205314124118
"RafflesMedical",103.77516050407,1.30302017269004
"RafflesMedical",103.93129218129,1.35809100033282
"River of Life Family Clinic",103.755740001423,1.3776211236711
"RafflesMedical",103.835776491296,1.4296984860254
"RafflesMedical",103.983635708359,1.33814521631176
"Red Dot Medical",103.916519598746,1.40262197324413
"Ren Medical Clinic",103.827667722133,1.43053575388582
"Reservoir Road Clinic & Surgery",103.920203566195,1.33635490585941
"Rivervale Family Clinic & Surgery",103.901841043722,1.38533736141014
"Royal Care Medical Yishun Grove",103.843558885887,1.42015550948838
"Royal Care Medical Yishun Junction 9",103.842276902055,1.43377281319948
"S & L FAMILY CLINIC",103.831598307398,1.42585285580125
"S AND L FAMILY CLINIC",103.838543994101,1.43422889275473
"S K TAY CLINIC & SURGERY",103.933719246548,1.34972149524439
"S LEE CLINIC",103.881261079223,1.37143736473082
"S S TAN MEDICAL CLINIC",103.834049245981,1.42934172925754
"S T MEDICAL CENTRE",103.886195689055,1.32170328990751
"S Y LEE CLINIC",103.850395374008,1.32572472592378
"S. T. MEDICAL CLINIC",103.926153139378,1.33312991887095
"SAINT-JULIEN CLINIC FOR DIABETES & ENDOCRINOLOGY",103.837601167324,1.34182282585918
"SATA CommHealth Community Hub",103.873207670164,1.39246632893681
"SATA CommHealth Medical Centre",103.739676885463,1.33382540751653
"SATA CommHealth Medical Centre",103.921391376569,1.32774293711146
"SATA CommHealth Medical Centre",103.786930895563,1.43501829556388
"SATA CommHealth Medical Centre",103.845927987274,1.37099726405562
"SATA CommHealth Medical Centre",103.942027827131,1.35344127649824
"SATA CommHealth Medical Centre",103.869979972572,1.32915444536368
"SATA CommHealth Medical Centre",103.716518474795,1.34542200611767
"SEASONS CLINIC",103.936530873297,1.35210583556431
"SENNETT MEDICAL CLINIC",103.923185592863,1.31260423076805
"SH TAN KIDNEY AND MEDICAL CLINIC",103.820124456725,1.30706156424643
"SHALOM CLINIC & SURGERY",103.804019034887,1.28685131584493
"SHALOM MEDICAL GROUP",103.853619482439,1.29681525968455
"SHENTON CLINIC",103.724307319672,1.34833335721941
"SHENTON FAMILY MEDICAL CLINIC",103.740177518805,1.33451257366884
"SHENTON FAMILY MEDICAL CLINIC",103.845682929328,1.37262841649544
"SHENTON FAMILY MEDICAL CLINIC",103.841261035114,1.27703474364687
"SHENTON FAMILY MEDICAL CLINIC (BEDOK RESERVOIR)",103.921663304271,1.33786042599072
"SHENTON FAMILY MEDICAL CLINIC (TAMPINES)",103.953586491461,1.35226231434834
"SHENTON MEDICAL GROUP",103.84592379296,1.27588674304532
"SHENTON MEDICAL GROUP",103.833344538803,1.43241454599015
"SHENTON MEDICAL GROUP",103.85206894582,1.28361958417727
"SHENTON MEDICAL GROUP",103.822038714188,1.2570386443268
"SHENTON MEDICAL GROUP",103.875061735482,1.32529543334089
"SHENTON MEDICAL GROUP",103.854548750789,1.27972491465308
"SHENTON MEDICAL GROUP",103.706685012636,1.33945271688955
"SHERATON MEDICAL CLINIC",103.885679159796,1.37297840263115
"SHIFA CLINIC & SURGERY",103.851478219833,1.30758123998287
"SIGLAP CLINIC PTE LTD",103.911720115565,1.30948276291967
"SILVER CROSS CLINIC (MARSILING)",103.774102413755,1.43036145793777
"SILVER CROSS MEDICAL",103.834641578841,1.41678634673088
"SILVER CROSS MEDICAL",103.795257905208,1.31177848862859
"TAY CLINIC",103.885031221639,1.31332659768711
"SIMEI CLINIC & SURGERY",103.953541142784,1.34359376286677
"SIMEI MEDICAL CENTRE",103.953541142784,1.34359376286677
"SIMON ROAD FAMILY CLINIC",103.885935907258,1.3617743634574
"SIMS DRIVE MEDICAL CLINIC",103.880077585336,1.31782374725095
"SINCERE MEDICAL & DENTAL CLINIC",103.836966390664,1.43672478429336
"SINGAPORE AEROMEDICAL CENTRE",103.900280919801,1.34363607889026
"SINGAPORE TECHNOLOGIES ELECTRONICS LIMITED (IN-HOUSE MEDICAL CLINIC)",103.849272321026,1.39160303137082
"SINGAPORE TELECOM CLINIC",103.838824144408,1.29883731525061
"SINGAPURA CLINIC",103.849843766758,1.29884587563078
"SM HANEEFA CLINIC",103.92488389348,1.32691137477773
"SOONG CLINIC AND SURGERY",103.802856952292,1.2922546717017
"SP CLINIC",103.767979335898,1.37730128054995
"ST ANDREW'S MISSION HOSPITAL CLINIC (ELLIOT ROAD)",103.929750021328,1.31075791672664
"ST ANDREW'S MISSION HOSPITAL CLINIC (SIMEI)",103.948799458403,1.34168650589195
"ST Engineering In-house Clinic (Changi)",103.972325551213,1.35064916412837
"ST Engineering In-house Clinic (Jalan Boon Lay)",103.712432335887,1.33948085341025
"ST Engineering In-house Clinic (Paya Lebar)",103.896796279931,1.35004734926347
"ST Engineering In-house Clinic (Seletar)",103.862850399796,1.41690177900939
"STARCARE CLINIC AND SURGERY  PTE. LTD.",103.749382188619,1.3462486617594
"STAT MEDICAL CLINIC",103.896018765382,1.41690780081278
"STERLING CLINIC & SURGERY",103.876132956821,1.35047535988667
"STERLING FAMILY CLINIC",103.939208398887,1.33178245042997
"STEWARD CLINIC",103.970463664726,1.37149482514443
"STREET 11 CLINIC",103.944509227628,1.3461607395066
"STREET 21 CLINIC TAMPINES PTE. LTD.",103.953009919289,1.35345315773106
"SUMMIT MEDICAL CLINIC",103.841432372506,1.37992681961038
"Platinum Medical Centre @Dorm",103.751872040865,1.33649931574899
"Platinum Medical Centre pte ltd",103.844582117379,1.41840135619382
"Potong Pasir Medical Clinic",103.867774260572,1.3323543600733
"Pristine Medical Clinic",103.723241115985,1.35057698682517
"Prive Clinic",103.82958804502,1.30665484568371
"ProHealth Medical Group @Fernvale",103.876125506847,1.39147015412078
"ProHealth Medical Group @Hougang",103.903623796172,1.37791506095757
"ProHealth Medical Group @Punggol Damai",103.908665597742,1.40461003130726
"ProHealth Medical Group @Taman Jurong Pte Ltd",103.720462024234,1.33484487386451
"Procross Medical Center",103.868214025397,1.33149708060439
"Procross Medical Clinic",103.807925410056,1.44438629268513
"Prohealth Medical Group @Punggol Spectra Pte. Ltd.",103.910536918863,1.40053114978911
"Providence Clinic @ Hillford",103.769543941461,1.34404337277176
"Providence Clinic @ Redhill",103.818673591845,1.2869200625471
"Providence Medical Centre Pte. Ltd.",103.849023724329,1.28240746012436
"Providence Orthopaedics",103.844212383776,1.32214005414322
"Prudence Family Clinic",103.849881703096,1.34962234945727
"Punggol Ripples Family Clinic",103.899198537951,1.40093563181012
"Q & M MEDICAL & AESTHETIC CLINIC (FARRER PARK)",103.856624020172,1.31142103101451
"Q & M MEDICAL & AESTHETIC CLINIC (TAMPINES CENTRAL) PTE. LTD.",103.945071748026,1.35425637955977
"Q & M MEDICAL CLINIC (BUANGKOK MRT) PTE. LTD.",103.893122570095,1.3828700200017
"Q & M MUTUAL HEALTHCARE MEDICAL CLINIC",103.902072622227,1.40454653696814
"Q & M Medical Clinic (Bukit Batok)",103.744211484368,1.34874703498808
"Q & M Medical Family Clinic",103.872524450893,1.35405255235679
"iDOC Clinic",103.88783201701,1.37924529078289
"iPCARE Clinic",103.87803114664,1.37203701009684
"my clinic",103.779313810092,1.33684217571663
"saudara clinic by A+J general physicians",103.904690339985,1.31724236488417
"St. Luke's Community Clinic",103.742182351689,1.3496004115257
"Standard Clinic & Surgery",103.896823893769,1.40541353684327
"Sunshine Clinic Family Practice & Surgery",103.950658404772,1.35830242158699
"Sunway Medical Centre",103.843252763122,1.32047597480701
"Swiss Clinic",103.795692352825,1.33081740087421
"T MEDICAL CLINIC (CITY GATE)",103.862331661469,1.30231590472988
"T Medical Clinic",103.828739863128,1.44608188224878
"T S WONG CLINIC & SURGERY",103.775491556251,1.43331773798557
"TAI SENG CLINIC",103.887216149787,1.33637945088224
"TAMPINES CLINIC AND SURGERY PTE LTD",103.944509227628,1.3461607395066
"TOWN CLINIC",103.860481764343,1.30097707775176
"TAMPINES MEDILIFE CLINIC",103.938014036838,1.34719233083684
"TAN & KOH CLINIC & SURGERY",103.909992224751,1.3313051776693
"TAN LEE CLINIC & SURGERY",103.957726864829,1.37030619330386
"TAN MEDICAL CLINIC PTE LTD",103.849115818814,1.36506492203815
"TAN MEDICARE CLINIC PTE LTD",103.840408652686,1.38010475022238
"TAN'S T & T CLINIC AND SURGERY",103.854641447659,1.34565720338064
"TAN-TEOH CLINIC & SURGERY",103.861087462865,1.31942539044681
"TAN-TEOH CLINIC & SURGERY",103.861087462865,1.31942539044681
"TAN-TEOH CLINIC & SURGERY (ANG MO KIO BRANCH)",103.845660198618,1.36708983210487
"TANJONG PAGAR MEDICAL CLINIC",103.842433596845,1.27568702794453
"TAY MEDICAL CENTRE",103.795264616726,1.30711568648359
"TC FAMILY CLINIC PTE LTD",103.717048366415,1.34767189579547
"Vitacare Family Clinic@Seletar Pte.Ltd.",103.879874611056,1.39158623013568
"Vital-Care Clinic and Surgery Pte Ltd",103.853976743936,1.37262666866782
"Viva Medical Clinic",103.952252183693,1.35836068994646
"TEBAN GARDEN CLINIC",103.738292803759,1.32213636288697
"TEH'S CLINIC & SURGERY",103.887148432888,1.32698404465594
"TEIN CLINIC & SURGERY",103.886655349854,1.3528926150549
"TEK DISPENSARY",103.855541063592,1.33904479825361
"TEMASEK CLINIC & SURGERY",103.943971359098,1.3198380312489
"TEMASEK MEDICAL CENTRE",103.790548015767,1.44275333234585
"TEMASEK MEDICAL CENTRE",103.747084778715,1.3980473611046
"TEMASEK MEDICAL CENTRE",103.816977584507,1.45292980559221
"TEMASEK MEDICAL CENTRE",103.746596967414,1.36356572652377
"TEMASEK MEDICAL CLINIC",103.854334496723,1.34064293669732
"TEMASEK MEDICAL CLINIC",103.938989345549,1.33254084334528
"TENG CLINIC",103.803846935065,1.29073246215042
"TEO CLINIC & SURGERY PTE LTD",103.771350557955,1.31427860262492
"TEOH CLINIC FAMILY PRACTICE",103.854030352437,1.3369102979863
"TEXTILE CENTRE CLINIC",103.861630792348,1.30393835652833
"TH Chia Medical Practice",103.873778334173,1.36934534973621
"THAI SHEN FAMILY CLINIC PTE LTD",103.939208398887,1.33178245042997
"THE BALMORAL CLINIC",103.876473975459,1.30230108382985
"THE BALMORAL CLINIC  FAMILY MEDICINE",103.835487584763,1.31643962977729
"THE BISHAN FAMILY DOCTORS",103.844748631654,1.35891907140489
"THE CHELSEA CLINIC (ROCHESTER)",103.788371152095,1.30541103558597
"THE CHUNGKIAW FAMILY PRACTICE PTE LTD",103.840356912641,1.38403248453043
"THE CIVIC CLINIC",103.924236461317,1.33177300798251
"THE CLINIC @ ONE GEORGE STREET",103.847819970393,1.2856940848176
"THE CLINIQ",103.826654919933,1.45035573243813
"THE CORONATION CLINIC",103.809999570462,1.32383512138206
"THE DOCTOR'S CLINIC",103.724496794909,1.3519251312171
"THE EDINBURGH CLINIC",103.742877957315,1.3849567248116
"THE FAHRENHEIT MEDICAL CENTRE",103.934249434387,1.32749295502142
"THE FAMILY MEDICAL CENTRE (YISHUN) PTE. LTD.",103.847404278661,1.42574178896438
"THE FAMILY PRACTICE CLINIC & SURGERY",103.800270024775,1.30659244995571
"THE FAMILY PRACTICE-POTONG PASIR",103.867774260572,1.3323543600733
"THE FLAME TREE MEDICAL CENTRE",103.834434648473,1.35276828454393
"THE HEALER CLINIC + SURGERY",103.873115537646,1.37012983432538
"THE MEDICAL AND AESTHETIC CLINIC PTE LTD",103.883265346401,1.31503870948871
"THE OLIVE TREE FAMILY CLINIC & SURGERY PTE. LTD.",103.890606111941,1.3873819457872
"THE PEOPLE'S CLINIC",103.75246691105,1.38150500405147
"THOMAS CLINIC & SURGERY",103.812007084733,1.2757050081363
"TIONG BAHRU MEDICAL CENTRE",103.829293518372,1.28503456963472
"TOH GUAN FAMILY CLINIC",103.744937236151,1.34155988951414
"TOWN HALL CLINIC PTE LTD",103.800215758169,1.27749904111234
"TP SIM FAMILY CLINIC & SURGERY",103.849571983466,1.34862997259882
"TPC Medical Clinic",103.845155395288,1.27672492662156
"TRINITY MEDICAL (PUNGGOL)",103.901262391636,1.4023030133944
"TRUE MEDICAL CLINIC PAYA LEBAR QUARTER",103.892836694638,1.31756115896992
"TRUE MEDICAL CLINIC TAMPINES WEST",103.932714940567,1.34903743492173
"TSI & PARTNERS FAMILY CLINIC",103.873778334173,1.36934534973621
"TWIN CITY MEDICAL CENTRE",103.832022135805,1.29342273673818
"TWIN CITY MEDICAL PRACTICE",103.834676124776,1.30242417185937
"Tampines Family Medicine Clinic",103.940408135516,1.35313359794721
"Tampines West Medical Clinic",103.938014036838,1.34719233083684
"Tan & Yik Clinic & Surgery",103.849316086331,1.34780072006666
"Tay Clinic",103.908688936297,1.33141324887407
"Tayka Medical",103.854887502669,1.30946144037683
"WINSTEDT CLINIC",103.853340215432,1.30621809763649
"Tayka Medical Family Clinic",103.717048366415,1.34767189579547
"Teck Ghee Clinic (Dr Tan Yang Khai) Pte Ltd",103.855527833275,1.36879314161118
"The Chong Family Clinic Pte Ltd",103.764518593859,1.31412254189651
"The Clinic @ Aperia",103.864326436374,1.30971120681481
"The Clinic @ Business City",103.799064823374,1.27482749248458
"The Clinic @ Campus",103.850105818253,1.29665679202142
"The Clinic @ Capitagreen",103.850083822226,1.28185803631837
"The Clinic @ Tai Seng",103.888825620541,1.33631557485623
"The Clinic Group @ Marina One",103.852844801568,1.27737235048624
"The Clinic@Fusionopolis",103.788101008635,1.29986251393975
"The Dublin Clinic",103.770776117109,1.32198067676568
"The Family Clinic @ Towner",103.861087462865,1.31942539044681
"The Family Physician Clinic",103.871416978846,1.37368392969698
"The Family Practice@ Skyville",103.809758591462,1.29531966312279
"The Good Life Medical Center",103.837601167324,1.34182282585918
"The Heart Doctors Clinic",103.837601167324,1.34182282585918
"The Pinnacle Medical Centre @ Maritime",103.840350063969,1.27661793625795
"The Singapore Clinic for Kidney Diseases (Pte Ltd)",103.83543933754,1.30516521414744
"The Tenteram Clinic",103.860807411655,1.32754908036765
"The iClinic",103.826785447839,1.28569742860668
"Tng Family Clinic",103.848576334379,1.36733858326108
"Tong Clinic & Surgery",103.847677034523,1.36462540282437
"Trinity Medical & Aesthetic Clinic",103.957268859362,1.34575482690831
"Trinity Medical (Shenton)",103.848408631153,1.27698070731049
"Trinity Medical Centre (Marine Parade)",103.905639343356,1.30245317778498
"Trinity Medical Clinic",103.784548440285,1.30735380274195
"Trinity Medical Clinic",103.739321261292,1.33472490438698
"Trucare Medical And Surgery",103.895291518123,1.37050445532031
"Trucare Medical And Surgery",103.839283930976,1.3674945803507
"TrueCare Clinic",103.854233088533,1.31438189327845
"Tzu Chi Free Clinic (Singapore)",103.818758492368,1.28499476970056
"UBI FAMILY CLINIC & SURGERY",103.902317496825,1.32942111198195
"UNICARE FAMILY CLINIC & SURGERY",103.711680539551,1.34967447000568
"UNICARE FAMILY CLINIC & SURGERY",103.709485323871,1.34668916700238
"UNIHEALTH 24-HR CLINIC (TOA PAYOH)",103.849264521174,1.33358025833851
"UNION MEDICAL CLINIC & SURGERY",103.872613997797,1.36934726838417
"UNITED HEALTH FAMILY CLINIC & SURGERY",103.837005089082,1.41770409901142
"UNITED MEDICAL CLINIC",103.858221510781,1.30621516431413
"UNITED MEDICAL PRACTITIONERS",103.953009919289,1.35345315773106
"UNIVERSAL MEDICAL CLINIC",103.828892847597,1.43136934942161
"UNIVERSAL MEDICAL CLINIC",103.838543994101,1.43422889275473
"UNIVERSAL MEDICAL CLINIC",103.742831711196,1.34771697452787
"USRAH MEDICAL CLINIC",103.931051496618,1.33212313297783
"Unihealth Clinic (Bedok)",103.932493034946,1.32587565153874
"WL&H Medical",103.831970581405,1.30611334615777
"Healthway Medical",103.739084635311,1.35017085094578
"Healthway Medical",103.77076830515,1.38358044593591
"LIM COUNTRY CLINIC",103.886636110951,1.35869679921108
"LOI+WONG CLINIC & SURGERY",103.725180466271,1.34994543580238
"KENSINGTON FAMILY CLINIC",103.866111068633,1.36526817884598
"Urban Medical Centre",103.848970997812,1.27954844736202
"VERNON CLINIC & SURGERY",103.861851786725,1.30294528655395
"VICTORY CLINIC AND SURGERY",103.788545950367,1.31010302628844
"VISTA MEDICAL CENTRE",103.785909603082,1.27980322341195
"Kai Clinic",103.907133515337,1.30763657069386
"LEE & TAN FAMILY CLINIC AND SURGERY",103.887943886651,1.32454761116775
"HEALTHSPRINGS MEDICAL ASSOCIATES",103.830722581301,1.30508722668002
"OUR FAMILY CLINIC + SURGERY",103.961614666694,1.37019473507472
"MEDEN CLINIC & SURGERY",103.814352117212,1.28879800624276
"Victor's Family Clinic",103.843423249834,1.33176643075075
"Victoria Medical House",103.79531438351,1.43712301469225
"Vitacare Family Clinic (Punggol Central)",103.910536918863,1.40053114978911
"Vitacare Family Clinic@Punggol West Pte Ltd",103.895387022161,1.40322712503317
"MEENARA CLINIC",103.851873942669,1.36799988803163
"NANYANG CENTRE CLINIC",103.690721731343,1.34148123560942
"RAFFLESMEDICAL",103.847529279188,1.37224394014507
"St Georges Clinic And Surgery Pte Ltd",103.861107276896,1.32258735163112
"S G CLINIC FAMILY PRACTICE",103.86498913644,1.36435938121985
"RafflesMedical",103.740177518805,1.33451257366884
"RafflesMedical",103.989066655162,1.35496948998212
"Viva Medical Group (Westside)",103.766131294904,1.30369748988215
"W Medical",103.816263881646,1.44436832542469
"SIA FAMILY CLINIC AND SURGERY",103.895865169689,1.31483950172833
"SILVER CROSS MEDICAL",103.775277106211,1.34235676021944
"STAT MEDICAL CLINIC @ HOUGANG",103.894853675365,1.36566733051337
"T MEDICAL CLINIC (KALLANG)",103.872491873232,1.31264014487988
"Viva Medical Group",103.94038160042,1.35727594434997
"W Y TEH FAMILY CLINIC AND SURGERY",103.955111125692,1.35901318154697
"W. H. YAK FAMILY CLINIC",103.933835585522,1.32325013385157
"WAN Medical Clinic",103.930684870619,1.32840382792706
"WEE'S FAMILY CLINIC & SURGERY",103.855171553982,1.32324727008732
"Tampines Medical Centre",103.949259231371,1.3507727878183
"UNIVERSAL MEDICAL CLINIC",103.953858335358,1.35292162528847
"United Medical Practitioners",103.944509227628,1.3461607395066
"VITACARE FAMILY CLINIC @ CANBERRA PTE. LTD.",103.813936814037,1.44631506786133
"RafflesMedical",103.964598499537,1.36645364049074
"WEN & WENG FAMILY CLINIC",103.822534715116,1.45026201893127
"WEST COAST CLINIC & SURGERY (CLEMENTI WEST) PTE LTD",103.76375957814,1.30291359278879
"WHAMPOA CLINIC",103.855171553982,1.32324727008732
"WHITECOAT MEDICAL",103.820411646878,1.2823935104936
"W P SIM FAMILY CLINIC & SURGERY",103.872312298307,1.36995099695439
"WELL FAMILY CLINIC & SURGERY",103.857024005426,1.37119666410327
"WONG CLINIC & SURGERY",103.872312298307,1.36995099695439
"WONG CLINIC AND SURGERY",103.855103690664,1.36454170930926
"WONG FAMILY CLINIC & SURGERY PTE LTD",103.908688936297,1.33141324887407
"WOODLANDS CLINIC",103.778613439736,1.43847983984994
"WOODLANDS FAMILY CLINIC",103.774102413755,1.43036145793777
"Zam Family Clinic",103.743525075344,1.39095082434027
"WOODLANDS MEDICAL CENTRE",103.773680352853,1.44620708777433
"WU CLINIC & SURGERY",103.739259690046,1.34256242271947
"Waheeda's Clinic & Surgery",103.851567478911,1.30696523402683
"Wee HealthFirst Medical Clinic",103.7674169862,1.31741204143962
"Wee's Clinic & Surgery Pte. Ltd.",103.930036524412,1.32856421162809
"Well Medical Clinic & Surgery",103.936796194489,1.37850572553651
"WellCare Family Clinic",103.833488111412,1.42822554362834
"Winsome Medical & Dental Center",103.856326403138,1.32400427512258
"Wong Clinic",103.925307290309,1.33131386611754
"Woodgrove Medical",103.781136877578,1.42919468078964
"Y M CHAN CLINIC & SURGERY",103.945792875721,1.35782898267512
"Y T LIM CLINIC",103.953009919289,1.35345315773106
"YANG & CHIN MEDICAL & DENTAL ASSOCIATES YANG ING SHYONG MEDICAL & AESTHETIC CLINIC",103.944509227628,1.3461607395066
"YANG & YAP CLINIC AND SURGERY (PTE LTD) / DR YANG ING HONG MEDICAL AND AESTHETIC CLINIC",103.924236461317,1.33177300798251
"YAP FAMILY CLINIC",103.77802575812,1.43828189844375
"YAP MEDICARE CLINIC & SURGERY",103.805373812286,1.31641190070436
"YAP WEE SEE RESPIRATORY AND SLEEP CLINIC",103.844212383776,1.32214005414322
"YEO CLINIC",103.74450960652,1.3515908698424
"YEO'S Clinic",103.770861088487,1.31351386363529
"YIM CLINIC",103.828789865619,1.2863657812581
"YIM MEDICAL CENTRE (ADMIRALTY MRT)",103.801293104547,1.43998366603242
"YISHUN RING ROAD CLINIC",103.83899894357,1.43416807953309
"YISHUNONE FAMILY CLINIC",103.833671016582,1.4298998339656
"YONG CLINIC & SURGERY",103.839186936926,1.41856736772689
"YOONG FAMILY CLINIC & SURGERY",103.961129743645,1.35335719500359
"YSL ALJUNIED CLINIC & SURGERY",103.879898474189,1.33372866023576
"YSL BEDOK CLINIC & SURGERY",103.925307290309,1.33131386611754
"Yarra Medical Clinic",103.757451263607,1.31641321897956
"Yio Chu Kang MRT Clinic Pte Ltd",103.842378423283,1.38076896102348
"ZENITH MEDICAL CLINIC",103.897805221313,1.40515419804686
"CHEN FAMILY CLINIC",103.872312298307,1.36995099695439
"CHONG'S MEDICAL CENTRE",103.844111318068,1.29815265418204
"CLARION MEDICAL",103.844516260553,1.36844644023912
"ADMIRALTY FAMILY MEDICAL CLINIC",103.80376495913,1.43808788035983
"Asia HealthPartners",103.833961913411,1.30450610034739
"FAITH CLINIC (BEDOK)",103.921215743798,1.33728644810221
"DA Clinic @ Anson",103.84592379296,1.27588674304532
"DRS CHUA & PARTNERS PTE LTD",103.842433596845,1.27568702794453
"EE CLINIC",103.843546990564,1.3708320282205
"G S CLINIC & SURGERY",103.841432372506,1.37992681961038
"Healthway Medical",103.706710011276,1.34118688532867
"banyan clinic @ jw",103.718334683532,1.3505012764805
"i.Medical & i.Aesthetics",103.836177650724,1.42790289016825
"iCare Medical and Wellness Clinic",103.828824191963,1.28874603715013
